id,광역시,시/군/구,동/읍,운동 종류,센터 이름,주소,전화번호,운영 시간,사진,기타 정보,센터 정보(설명),무료로 이용할 수 있어요,따로 준비하면 좋아요,위도,경도
1,서울특별시,용산구,청파동,PT&헬스,MCTGYM 용상,서울 용산구 청파로 251 용산 다올 노블리움 지하1층,0507-1375-7537,24시간 영업,https://search.pstatic.net/common/?src=https%3A%2F%2Fldb-phinf.pstatic.net%2F20231226_143%2F1703582837348WDbJY_JPEG%2FKakaoTalk_20231226_170101223_06.jpg,,"파워 리프팅의 메카, MCTGYM 용상에서 당신의 한계를 뛰어넘으세요. 최신 장비와 함께 체계적인 코칭으로 최고의 성과를 보장합니다. 중량 운동의 진수를 경험하고 싶은 분들에게 강력 추천합니다. 당신의 근력 목표를 이곳에서 실현해보세요.","샤워실 공용락커 운동복 타월
",운동화,37.541910094919,126.970364691772
2,서울특별시,용산구,청파동,PT&헬스,밸런스 핏,서울 용산구 청파로47길 49 캠퍼스프라자 4층,0507-1397-6377,평일 06:00-24:00 토요일 09:00-18:00,https://search.pstatic.net/common/?src=https%3A%2F%2Fpup-review-phinf.pstatic.net%2FMjAyNDA4MjZfMjI5%2FMDAxNzI0NjUyNTU2NTI2.CO4I7YccPt6f9Xx8y9fsFejf7asEfhDtXfLaNtKLrBEg.MtUU5mZFQxNBjOo7NF6Zk9FINkwOEIL_O3aa0zaggR0g.JPEG%2F1000039811.jpg.jpg%3Ftype%3Dw1500_60_sharpen,,일상 속 균형을 찾고 싶은 당신을 위한 밸런스 핏. 기능성 트레이닝과 맞춤형 운동 프로그램으로 체형 교정과 건강한 몸을 만듭니다. 다양한 수업과 개인 트레이너와 함께 균형 잡힌 몸과 마음을 되찾아보세요. 편안하고 세련된 분위기에서 운동의 즐거움을 느낄 수 있습니다.,샤워실 공용락커 운동복 타월,운동화,37.5445841559546,126.967563904498
3,서울특별시,용산구,청파동,PT&헬스,휘트니스엠 공덕2호점,서울 마포구 마포대로 130 지하1층,0507-1422-6655,평일 06:00-23:00 주말 10:00-21:00,https://search.pstatic.net/common/?src=https%3A%2F%2Fpup-review-phinf.pstatic.net%2FMjAyNDA4MjNfMTg0%2FMDAxNzI0NDE5ODg4MDYw.P4oMV2DW654W2h3XrioDDRjjh6LGVwICOQdoPh3nT-Mg.EhE2W7knfk5s6uZ4X69nzkOOskxVK_cW4D_iDmq-eCMg.JPEG%2F50BB290A-0950-4059-8E47-919DE324EF90.jpeg%3Ftype%3Dw1500_60_sharpen,,도심 속에서도 여유를 느낄 수 있는 휘트니스엠 공덕2호점. 넓고 쾌적한 공간에서 최신식 기구와 다양한 운동 프로그램을 경험하세요. 초보자부터 전문가까지 모두 만족할 수 있는 맞춤형 피트니스 센터입니다. 바쁜 일상 속에서도 건강한 라이프스타일을 유지하세요.,샤워실 공용락커 운동복 타월,운동화,37.5459729185296,126.952989325371
4,서울특별시,용산구,청파동,PT&헬스,스포벡휘트니스 마포점,서울 마포구 마포대로 204 지하3층,0507-1341-6933,24시간 영업,https://search.pstatic.net/common/?src=https%3A%2F%2Fpup-review-phinf.pstatic.net%2FMjAyNDA4MTdfMTgz%2FMDAxNzIzODc3NjA4Nzc1.uITsTr-6PHFjG7NBggrI6F2h0onHvMUJAeIJsa-dAMIg.RYb9Z484bYpaS05Ns57uiE3Ndzya9YEC-QXqrKkHyBYg.JPEG%2F1000015497.jpg.jpg%3Ftype%3Dw1500_60_sharpen,,"스포벡휘트니스 마포점에서 건강한 변화를 시작하세요. 체계적인 피트니스 프로그램과 전문 트레이너들이 당신의 목표 달성을 도와줍니다. 최첨단 시설에서 다양한 운동을 즐길 수 있으며, 친절한 분위기로 초보자도 쉽게 적응할 수 있습니다. 건강한 삶의 시작을 이곳에서 만들어보세요.",샤워실 공용락커 운동복 타월,운동화,37.5520216887535,126.956533914305
5,서울특별시,용산구,청파동,테니스&배드민턴,효창공원 배드민턴장,서울 용산구 효창원로 177-18,,평일 09:00-18:00,,,"푸른 자연 속에서 배드민턴의 즐거움을 만끽하세요. 효창공원 배드민턴장은 넓고 잘 관리된 코트로, 누구나 편하게 이용할 수 있는 공간입니다. 친구, 가족과 함께 운동하며 건강한 시간을 보내보세요. 신선한 공기를 마시며 활력을 되찾을 수 있는 최고의 장소입니다",샤워실 공용락커,테니스화,37.544957405495,126.962290943049
6,서울특별시,용산구,청파동,테니스&배드민턴,스포원 테니스 아카데미,서울 마포구 만리재옛길 22,0507-1423-9993,06:00-22:00,https://search.pstatic.net/common/?src=https%3A%2F%2Fldb-phinf.pstatic.net%2F20180111_156%2F1515658716901jOa37_JPEG%2FJm_gXOyMASLMhbXXI6oecehR.jpg,,"테니스의 기본부터 고급 기술까지, 스포원 테니스 아카데미에서 체계적으로 배워보세요. 다양한 레벨의 강습 프로그램이 준비되어 있어, 누구나 실력 향상을 기대할 수 있습니다. 친절한 코치진과 함께 즐겁게 테니스를 배우고, 건강한 라이프스타일을 만들어보세요.",샤워실 공용락커,테니스화,37.5458880023081,126.955676110374
7,서울특별시,용산구,청파동,필라테스,마이페이보릿필라테스 서울역점,서울 용산구 만리재로 178 3층,0507-1366-4024,평일 06:00-24:00 토요일 09:00-18:00,https://search.pstatic.net/common/?src=https%3A%2F%2Fnaverbooking-phinf.pstatic.net%2F20231223_164%2F1703302459003JUdsm_JPEG%2Fimage.jpg,,"서울역에서 만나는 프리미엄 필라테스, 마이페이보릿필라테스. 아늑한 분위기에서 전문가와 함께 정확한 동작을 익힐 수 있습니다. 체형 교정과 유연성 향상을 목표로 하는 분들에게 최적의 장소입니다. 직장인들에게도 접근성이 뛰어나며, 스트레스를 풀고 활력을 되찾는 시간을 가져보세요.",샤워실 공용락커 수건,토삭스,37.5540591897973,126.966113130218
8,서울특별시,용산구,청파동,필라테스,필라테스 더바른 숙대 본점,서울 용산구 청파로47길 42-1 지하1층,0507-1497-7589,07:00-22:00,https://search.pstatic.net/common/?src=https%3A%2F%2Fldb-phinf.pstatic.net%2F20231216_155%2F170273114208686DMo_PNG%2F%25BD%25BA%25C5%25A9%25B8%25B0%25BC%25A6_2023-12-16_%25BF%25C0%25C8%25C4_9.52.11.png,,필라테스의 본질을 경험할 수 있는 필라테스 더바른 숙대 본점. 정교한 동작과 심화된 트레이닝으로 몸의 균형을 잡아줍니다. 숙련된 강사들이 맞춤형 지도를 통해 개인별 목표를 달성할 수 있도록 돕습니다. 고급스러운 환경에서 최고의 필라테스 경험을 누리세요.,샤워실 공용락커 수건,토삭스,37.5448134920071,126.968010550064
9,서울특별시,용산구,청파동,필라테스,다짐필라테스 남영역점,서울 용산구 청파로 247 애전빌딩 3층,0507-1461-3319,평일 10:00-24:00 토요일 09:00-14:00,https://search.pstatic.net/common/?src=https%3A%2F%2Fpup-review-phinf.pstatic.net%2FMjAyNDA4MjRfMjA3%2FMDAxNzI0NDcxOTExNjkz.LcRBb34Syfi-ygh2scwH7fvcnjhANQ2uz1xShunZu6Ag.bk3l1O9o8i_ttMFUycAetqkACe5bMC8xJG2bgP7N3Wkg.JPEG%2F172447190306872835076691231853.jpg%3Ftype%3Dw1500_60_sharpen,,남영역에서 필라테스를 통해 다짐을 새롭게 다져보세요. 체계적인 프로그램으로 체형 교정과 유연성 향상을 돕습니다. 깔끔하고 아늑한 스튜디오에서 마음껏 운동을 즐길 수 있습니다. 초보자부터 경험자까지 모두 환영하는 편안한 분위기에서 건강한 변화를 경험하세요.,샤워실 공용락커 수건,토삭스,37.5417233269798,126.970401766599
10,서울특별시,용산구,청파동,필라테스,팔라테스핏,서울 용산구 청파로47길 78-18 지상 1층/2층,0507-1425-6377,평일 06:00-23:00 주말 10:00-21:00,https://search.pstatic.net/common/?src=https%3A%2F%2Fldb-phinf.pstatic.net%2F20210512_143%2F1620802527462KHhW8_JPEG%2FKakaoTalk_20210510_205730577.jpg,,팔라테스핏에서 만나는 새로운 필라테스 경험. 고급스럽고 편안한 환경에서 체형 교정과 근력 향상을 도와드립니다. 전문 강사들이 개인 맞춤형 프로그램을 제공하여 최적의 운동 효과를 느낄 수 있습니다. 바쁜 일상 속에서도 몸과 마음의 균형을 되찾을 수 있는 곳입니다.,샤워실 공용락커 수건,토삭스,37.5452696744672,126.966096514452
11,서울특별시,용산구,청파동,요가,르다요가 숙대점,서울 용산구 청파로47길 42-1 3층,0507-1494-7589,평일 10:00-21:30 토요일 09:00-13:00,https://search.pstatic.net/common/?src=https%3A%2F%2Fldb-phinf.pstatic.net%2F20230313_226%2F1678683096412w7AvF_JPEG%2F8780EBAF-432C-4503-BDC3-DB13EA5F0464.jpeg,,"숙명여대 앞에 위치한 르다요가는 도심 속에서 평온함을 찾을 수 있는 요가 스튜디오입니다. 아늑한 분위기 속에서 전문적인 요가 수업을 받을 수 있어, 초보자부터 전문가까지 모두에게 적합합니다. 심신의 안정을 찾고 건강한 몸을 만들고 싶다면 이곳에서 요가를 시작해보세요.",샤워실 공용락커 요가매트,토삭스,37.5448134920071,126.968010550064
12,서울특별시,용산구,청파동,요가,블리스요가 숙대점,서울 용산구 청파로47나길 19,02-719-9090,평일 07:00-24:00 토요일 09:00-18:00,https://search.pstatic.net/common/?src=https%3A%2F%2Fldb-phinf.pstatic.net%2F20191102_209%2F1572660514080hpNoP_JPEG%2FnWiXRjyN0Q726wbApYvICV5x.jpeg.jpg,,"블리스요가 숙대점에서 하루의 스트레스를 날려보세요. 편안한 분위기와 체계적인 수업으로 몸과 마음의 균형을 맞춰줍니다. 다양한 요가 프로그램이 준비되어 있어, 각자의 레벨에 맞는 수업을 선택할 수 있습니다. 평온한 마음과 건강한 신체를 동시에 얻을 수 있는 최고의 요가 스튜디오입니다.",샤워실 공용락커 요가매트,토삭스,37.5459076517112,126.966978978341
13,서울특별시,용산구,청파동,요가,요가타운 서소문교육원,서울 중구 서소문로 103 배재빌딩 5층 523호 요가타운서소문,0507-1305-5118,평일 07:30-23:30,https://search.pstatic.net/common/?src=https%3A%2F%2Fldb-phinf.pstatic.net%2F20210430_141%2F1619748892939pbK5K_JPEG%2FrgX2NJtcionoScUvlOgWuwhJ.jpg,,"도심 속 힐링의 공간, 요가타운 서소문교육원에서 요가의 진수를 경험하세요. 전문 강사들의 지도 아래 체계적인 수련이 가능하며, 몸과 마음의 평화를 되찾을 수 있습니다. 모든 레벨의 수련자들이 함께 할 수 있는 프로그램이 준비되어 있습니다. 번잡한 일상을 벗어나 고요한 시간을 가져보세요.",샤워실 공용락커 요가매트,토삭스,37.563014908776,126.972668699367
14,서울특별시,용산구,청파동,요가,사트얌요가 공덕점,서울 마포구 새창로 40 5층 사트얌요가,02-749-9091,평일 07:30-22:00,https://search.pstatic.net/common/?src=https%3A%2F%2Fldb-phinf.pstatic.net%2F20240430_165%2F1714462293273xsp6Q_JPEG%2FIMG_6444.jpeg,,"사트얌요가 공덕점에서 진정한 요가의 깊이를 느껴보세요. 전통 요가의 철학과 현대적인 운동법을 결합한 프로그램으로, 심신의 안정과 건강을 도모합니다. 초보자도 쉽게 따라 할 수 있는 친절한 강습이 제공됩니다. 바쁜 일상 속에서 나만의 시간을 가질 수 있는 최적의 장소입니다.",샤워실 공용락커 요가매트,토삭스,37.5412429034653,126.954035555628
15,서울특별시,용산구,청파동,골프,효창골프연습장,서울 용산구 효창원로 164 효창골프연습장,02-715-0022,매일 06:00-23:00,https://search.pstatic.net/common/?src=https%3A%2F%2Fldb-phinf.pstatic.net%2F20150901_182%2F1441038321733aKB9D_JPEG%2F136757545464895_0.jpeg,,"도심 속에서 만나는 푸른 골프장, 효창골프연습장에서 당신의 스윙을 연마하세요. 초보자부터 숙련자까지 모두가 즐길 수 있는 넓고 쾌적한 연습 공간을 제공합니다. 자연 속에서 편안하게 골프를 연습하며 스트레스를 풀 수 있습니다. 다양한 레슨 프로그램도 준비되어 있어 골프 실력을 한층 높일 수 있습니다.",공용락커,골프화,37.5426676134162,126.96288411825
16,서울특별시,용산구,청파동,골프,효창스크린골프,서울 용산구 효창원로 164,0507-1445-0754,매일 06:00-22:00,https://search.pstatic.net/common/?src=https%3A%2F%2Fldb-phinf.pstatic.net%2F20211209_72%2F1639020588924y7cTJ_JPEG%2F13E0B25F-6ADA-42CC-BDA9-6F2ACEA59073.jpeg,,"실내에서 즐기는 리얼 골프, 효창스크린골프에서 현실감 넘치는 골프 라운딩을 체험하세요. 최신 장비와 함께 정교한 코스가 준비되어 있어, 마치 실제 필드에서 플레이하는 듯한 기분을 느낄 수 있습니다. 골프 초보자부터 프로까지 모두가 만족할 수 있는 최적의 공간입니다.",공용락커,골프화,37.5426676134162,126.96288411825
17,서울특별시,용산구,청파동,수영,아현스포렉스 수영장,서울 마포구 마포대로 247,0507-1470-8025,평일 06:00-22:50,https://search.pstatic.net/common/?src=https%3A%2F%2Fldb-phinf.pstatic.net%2F20211014_88%2F16342006996846g6xa_JPEG%2F-PmK9Hr6evR5yXvLwBYfqFry.jpg,,"아현스포렉스 수영장에서 깨끗하고 쾌적한 환경에서 수영을 즐기세요. 다양한 수영 프로그램과 함께 누구나 쉽게 수영을 배울 수 있습니다. 넓은 공간과 잘 관리된 시설로, 가족 모두가 즐길 수 있는 수영장입니다. 바쁜 일상 속에서 건강한 시간을 보낼 수 있는 최고의 선택입니다.",샤워실,수영복 샤워도구,37.5564007056196,126.9565000215
19,서울특별시,용산구,이촌1동,PT&헬스,스포하이 피트니스,서울 용산구 이촌로84길 9 유일빌딩 B1,0507-1326-9077,평일 06:00-23:00 주말 10:00-21:00,https://search.pstatic.net/common/?src=https%3A%2F%2Fnaverbooking-phinf.pstatic.net%2F20240711_7%2F1720683418236mL06X_JPEG%2FKakaoTalk_20240711_162630512.jpg,,"스포하이 피트니스에서 건강한 몸을 만들어보세요. 최첨단 운동 기구와 체계적인 트레이닝 프로그램이 준비되어 있습니다. 전문 트레이너와 함께 목표를 설정하고, 체계적으로 운동을 진행할 수 있습니다. 깨끗하고 쾌적한 환경에서 즐겁게 운동할 수 있는 피트니스 센터입니다.",샤워실 공용락커 운동복 타월,운동화,37.5184256285681,126.977052886702
20,서울특별시,용산구,이촌1동,PT&헬스,더블에이짐 이촌점,서울 용산구 이촌로 192 지하1층,0507-1466-2244,평일 06:00-23:00 주말 10:00-21:00,https://search.pstatic.net/common/?src=https%3A%2F%2Fldb-phinf.pstatic.net%2F20230114_205%2F1673699848246IlKxi_JPEG%2FA5706247-072A-4386-A66B-B37DDCCC2C58.jpeg,,"이촌동에 위치한 더블에이짐에서 피트니스의 즐거움을 느껴보세요. 최첨단 시설과 다양한 운동 프로그램이 준비되어 있어, 초보자부터 전문가까지 모두 만족할 수 있습니다. 전문 트레이너의 지도 아래 체계적으로 운동할 수 있으며, 건강한 라이프스타일을 유지할 수 있습니다.",샤워실 공용락커 운동복 타월,운동화,37.5211245635258,126.968385483185
21,서울특별시,용산구,이촌1동,PT&헬스,후핏,서울 용산구 이촌로 274 우진상가 2층,0107-1305-7665,평일 06:00-23:00 토요일 10:00-17:00,https://search.pstatic.net/common/?src=https%3A%2F%2Fldb-phinf.pstatic.net%2F20231013_143%2F1697126358676PWKYv_JPEG%2F3472373555144677172_20180305071859842.jpeg,,"후핏에서 강력한 피트니스 경험을 해보세요. 최신 운동 장비와 함께 개인 맞춤형 트레이닝을 제공합니다. 체계적인 운동 프로그램으로 목표를 달성하고, 건강한 몸을 만들어보세요. 활기찬 분위기 속에서 에너지를 충전하는 건 어때요?",샤워실 공용락커 운동복 타월,운동화,37.5186955798212,126.977107892418
22,서울특별시,용산구,이촌1동,PT&헬스,상떼,서울 용산구 이촌로58길 3 지하1층,010-5109-7717,평일 06:00-22:00 토요일 06:00-17:00,https://search.pstatic.net/common/?src=https%3A%2F%2Fldb-phinf.pstatic.net%2F20240413_190%2F1712936143221lhDSK_JPEG%2F1000002321.jpg,,상떼에서 몸과 마음의 건강을 동시에 챙겨보세요. 다양한 피트니스 프로그램과 웰니스 활동으로 균형 잡힌 삶을 추구합니다. 체계적인 트레이닝과 함께 편안한 분위기에서 운동을 즐길 수 있습니다. 일상의 스트레스를 풀고 에너지를 충전할 수 있는 완벽한 공간입니다.,샤워실 공용락커 운동복 타월,운동화,37.520985935018,126.968859519853
23,서울특별시,용산구,이촌1동,테니스&배드민턴,이촌 한강공원배드민턴장,서울 용산구 이촌동 173-3,,평일 09:00-18:00,,,한강의 자연을 배경으로 이촌 한강공원 배드민턴장에서 운동을 즐겨보세요. 탁 트인 공간에서 신선한 공기를 마시며 배드민턴을 즐길 수 있는 최적의 장소입니다. 친구나 가족과 함께 활동적인 시간을 보내며 건강을 챙길 수 있습니다. 도심 속에서도 자연을 만끽할 수 있는 특별한 장소입니다.,샤워실 공용락커,테니스화,37.5291368047868,126.952483891268
24,서울특별시,용산구,이촌1동,테니스&배드민턴,세컨드랠리 용산점,서울 용산구 한강대로15길 23 5층,,24시간영업,https://search.pstatic.net/common/?src=https%3A%2F%2Fnaverbooking-phinf.pstatic.net%2F20240827_143%2F17246930188321LyqK_PNG%2FScreenshot_2024-08-27_at_2.23.07_AM.png,,"테니스의 즐거움을 극대화할 수 있는 세컨드랠리 용산점. 초보자부터 고급자까지 모두가 만족할 수 있는 맞춤형 레슨을 제공합니다. 최신 시설과 전문 코치진이 함께하며, 실력 향상을 위한 체계적인 프로그램이 준비되어 있습니다. 테니스의 매력을 이곳에서 느껴보세요.",샤워실 공용락커,테니스화,37.5261297437664,126.963172986485
25,서울특별시,용산구,이촌1동,필라테스,고요웰니스 동부이촌점,서울 용산구 이촌로64길 24 2층 1호,0507-1442-3041,평일 10:00-22:00 토요일 10:00-18:00,https://search.pstatic.net/common/?src=https%3A%2F%2Fldb-phinf.pstatic.net%2F20240618_49%2F1718690531359Q2ThY_PNG%2F15.png,,"고요웰니스 동부이촌점에서 몸과 마음의 평화를 되찾아보세요. 편안한 분위기와 다양한 웰니스 프로그램이 준비되어 있어, 일상 속에서의 힐링을 제공합니다. 요가와 필라테스 등 다양한 수업으로 건강한 라이프스타일을 유지할 수 있습니다. 내면의 고요함을 찾고 싶은 분들에게 이상적인 장소입니다.",샤워실 공용락커 수건,토삭스,37.5200049152766,126.969871897307
26,서울특별시,용산구,이촌1동,필라테스,조셉필라테스,서울 용산구 이촌로 248 한강맨션,02-794-9997,평일 09:00-22:00 토요일 10:00-14:00,https://search.pstatic.net/common/?src=https%3A%2F%2Fldb-phinf.pstatic.net%2F20200226_60%2F1582648545377KR9x9_PNG%2FhV9wZ2LprgVyfqGyJk8mVTq3.png,,조셉필라테스에서 필라테스의 진수를 경험해보세요. 체형 교정과 유연성 향상을 목표로 하는 맞춤형 프로그램이 제공됩니다. 전문 강사들이 개별 지도를 통해 최상의 운동 효과를 보장합니다. 깔끔하고 현대적인 환경에서 건강한 변화를 시작할 수 있습니다.,샤워실 공용락커 수건,토삭스,37.5193865878083,126.975025954742
27,서울특별시,용산구,이촌1동,요가,이촌동 요가원,서울 용산구 이촌로88길 16 2층,0507-1379-5896,10:00-22:00,https://search.pstatic.net/common/?src=https%3A%2F%2Fldb-phinf.pstatic.net%2F20240731_256%2F1722421114904LvUBk_JPEG%2F%25C3%25D6%25B1%25D9_%25BB%25E7%25C1%25F8_%25BA%25B8%25B1%25E2_2_-_%25C6%25ED%25C1%25FD%25C7%25D4.jpg,,"이촌동 요가원에서 내면의 평화를 찾아보세요. 차분하고 아늑한 공간에서 요가를 통해 몸과 마음의 균형을 잡아줍니다. 다양한 요가 수업이 준비되어 있어, 초보자부터 숙련자까지 모두가 만족할 수 있습니다. 일상 속에서 스트레스를 해소하고 활력을 되찾을 수 있는 곳입니다.",샤워실 공용락커 요가매트,토삭스,37.5178484697556,126.977647490904
28,서울특별시,용산구,이촌1동,요가,아케리카요가 용산점,서울 용산구 새창로 213-12 현대하이엘 2층 아메리카요가용산점(파리바게트 옆 건물),0507-1434-9780,평일 07:00-23:00 토요일 10:30-13:30,https://search.pstatic.net/common/?src=https%3A%2F%2Fldb-phinf.pstatic.net%2F20240502_117%2F1714629931905J4CXK_JPEG%2F%25C7%25CE%25C5%25A9%25C7%25D8%25B8%25D4_%25282%2529.jpg,,아케리카요가 용산점에서 진정한 요가의 깊이를 느껴보세요. 전통 요가와 현대적인 운동법을 결합한 프로그램으로 심신의 안정을 도모합니다. 차분하고 세련된 환경에서 요가를 통해 내면의 평화를 찾아보세요. 요가를 사랑하는 모든 이들에게 완벽한 선택이 될 것입니다.,샤워실 공용락커 요가매트,토삭스,37.5304894835944,126.968028095222
29,서울특별시,용산구,이촌1동,골프,이촌스크린골프,서울 용산구 이촌로64길 24 샘물빌딩 지하 1층 이촌스크린,02-792-2271,평일 08:00-24:00 주말 09:30-24:00,https://search.pstatic.net/common/?src=https%3A%2F%2Fldb-phinf.pstatic.net%2F20150831_152%2F1440991079155qcRa3_JPEG%2FSUBMIT_1400909196291_18171768.jpg,,이촌스크린골프에서 실내에서 현실감 넘치는 골프를 즐겨보세요. 최신 기술을 이용한 정교한 스크린으로 마치 실제 필드에서 플레이하는 듯한 기분을 느낄 수 있습니다. 초보자부터 숙련자까지 모두가 만족할 수 있는 다양한 코스가 준비되어 있습니다. 편안한 환경에서 골프 실력을 한층 높일 수 있습니다.,공용락커,골프화,37.5200049152766,126.969871897307
30,서울특별시,용산구,이촌1동,골프,골프존파크 이촌 다온스크린,서울 용산구 이촌로64길 24 지하1층,02-792-2271,평일 09:00-18:00,https://search.pstatic.net/common/?src=https%3A%2F%2Fldb-phinf.pstatic.net%2F20240822_299%2F1724307362922KLHEv_JPEG%2FKakaoTalk_20240808_194759949.jpg,,골프존파크 이촌 다온스크린에서 골프의 재미를 느껴보세요. 최신 스크린 골프 시스템을 갖춘 이곳에서 정밀한 라운딩을 즐길 수 있습니다. 초보자도 쉽게 즐길 수 있는 다양한 코스와 프로그램이 준비되어 있습니다. 도심 속에서 손쉽게 골프를 즐기고 싶다면 이곳이 최적의 장소입니다.,공용락커,골프화,37.5200049152766,126.969871897307
31,서울특별시,용산구,이촌1동,골프,GDR아카데미 PGA골프클리닉,서울 용산구 이촌로 223-13 지하1층,0507-1449-2051,평일 06:00-23:00 주말 09:00-20:00,https://search.pstatic.net/common/?src=https%3A%2F%2Fldb-phinf.pstatic.net%2F20231116_168%2F1700146043763hLsde_JPEG%2FKakaoTalk_20231101_193843541_08.jpg,,GDR아카데미 PGA골프클리닉에서 프로 수준의 골프 레슨을 받아보세요. 최신 시뮬레이터와 전문 코치진의 지도로 골프 실력을 향상시킬 수 있습니다. 체계적인 분석과 맞춤형 트레이닝으로 골프의 모든 측면을 향상시킬 수 있습니다. 진정한 골프 마스터가 되고 싶다면 이곳에서 시작하세요.,공용락커,골프화,37.5213165943831,126.972067403072
32,서울특별시,용산구,이촌1동,골프,이촌골프클럽,서울 용산구 이촌로 276-1 지하 1층,02-792-7500,평일 07:00-23:00 주말 09:00-21:00,https://search.pstatic.net/common/?src=https%3A%2F%2Fldb-phinf.pstatic.net%2F20181220_199%2F1545276430707PeBHg_JPEG%2FDPERG7GOQW0XUej2-KSkP6NL.jpg,,"도심 속의 편안한 골프 라운딩, 이촌골프클럽에서 경험해보세요. 넓고 쾌적한 실내 환경에서 골프를 즐길 수 있으며, 다양한 코스와 맞춤형 레슨이 준비되어 있습니다. 초보자부터 전문가까지 모두가 만족할 수 있는 최적의 장소입니다. 골프의 즐거움을 이곳에서 만끽하세요.",공용락커,골프화,37.5185845416152,126.97739603702
33,서울특별시,용산구,이촌1동,복싱,마블복싱스퀘어,서울 용산구 이촌로 274 지하1층,0507-1407-8865,평일 10:00-23:00 토요일 12:00-17:00,https://search.pstatic.net/common/?src=https%3A%2F%2Fldb-phinf.pstatic.net%2F20200310_4%2F1583831672226pFuTa_JPEG%2Fcc1dXIutK2XzW2IJIuUsI9Gr.jpg,,마블복싱스퀘어에서 강력한 복싱 트레이닝을 경험해보세요. 최신 시설과 전문 코치의 지도로 체계적인 복싱 수업이 제공됩니다. 초보자도 쉽게 따라 할 수 있는 맞춤형 프로그램으로 건강한 몸을 만들어보세요. 도전적이고 활기찬 분위기 속에서 스트레스를 날려버릴 수 있는 최고의 장소입니다.,샤워실 공용락커,샤워도구,37.5186955798212,126.977107892418
34,서울특별시,용산구,이촌1동,복싱,샷건복싱짐,서울 용산구 한강대로 198 신생빌딩 지하 1층,010-4662-0375,평일 11:00-23:00,https://search.pstatic.net/common/?src=https%3A%2F%2Fldb-phinf.pstatic.net%2F20240428_184%2F1714253840554L3iK9_PNG%2FIMG_2761.png,,샷건복싱짐에서 강력한 에너지를 발산하며 복싱의 매력을 느껴보세요. 체계적인 트레이닝과 친절한 코칭으로 초보자도 쉽게 적응할 수 있습니다. 다양한 프로그램을 통해 체력을 키우고 스트레스를 해소할 수 있습니다. 도심 속에서 강력한 피트니스를 원하는 분들에게 완벽한 선택입니다.,샤워실 공용락커,샤워도구,37.5359500223392,126.974822090927
35,서울특별시,용산구,이촌1동,수영,청소년수련원 수영장,"서울 용산구 이촌로71길 24 이촌제1동주민센터, 용산청소년수련관",,평일 09:00-18:00,,,"청소년수련원 수영장은 청소년을 위한 안전하고 쾌적한 수영 공간입니다. 다양한 수영 프로그램이 준비되어 있어, 초보자도 쉽게 배울 수 있습니다. 가족 단위로 이용하기에도 좋은 시설로, 청소년들이 즐겁고 건강하게 수영을 즐길 수 있는 최적의 장소입니다. 수영을 통해 건강한 신체와 자신감을 키워보세요.",샤워실,수영복 샤워도구,37.5213567033653,126.973298153783
36,서울특별시,용산구,이촌1동,수영,용산초등학교수영장,서울 용산구 한강대로57길 33 용산초등학교수영장,02-792-7330,24시간,https://search.pstatic.net/common/?src=http%3A%2F%2Fblogfiles.naver.net%2F20160621_236%2Fjunhyuk0305_1466480448460gHbdp_JPEG%2F20160620_142838.jpg%23740x416,,"용산초등학교수영장은 초등학생들을 위한 안전한 수영 교육 공간입니다. 깨끗하고 관리가 잘 된 수영장으로, 어린이들이 수영을 배우기에 안성맞춤입니다. 전문 강사진이 체계적으로 수영을 가르쳐 주어, 아이들이 물에 대한 두려움을 극복하고 즐거움을 느낄 수 있습니다. 지역 사회를 위한 소중한 자원으로, 학생들과 가족 모두에게 사랑받는 장소입니다.",샤워실,수영복 샤워도구,37.535613442977,126.972550624529
37,서울특별시,용산구,한강로동,PT&헬스,에이펙스 이엠에스 스튜디오 용산점,서울 용산구 한강대로 69 B114-1,02-2676-0891,평일 07:30-22:00,https://search.pstatic.net/common/?src=https%3A%2F%2Fnaverbooking-phinf.pstatic.net%2F20231130_262%2F17013266889677Gji6_JPEG%2FKakaoTalk_20231117_110525517.jpg,,"에이펙스 이엠에스 스튜디오 용산점에서 최첨단 EMS 트레이닝을 경험해보세요. 개인 맞춤형 전기 근육 자극 운동으로 짧은 시간에 높은 운동 효과를 얻을 수 있습니다. 바쁜 일상 속에서도 효율적으로 체력을 단련할 수 있는 공간입니다. 현대적인 환경과 친절한 트레이너들이 함께하여, 체력 향상과 몸매 관리를 동시에 할 수 있습니다.",샤워실 공용락커 운동복 타월,운동화,37.5270404595814,126.964892234354
38,서울특별시,용산구,한강로동,PT&헬스,센트럴짐,서울 용산구 서빙고로 17 센트럴파크타워 업무동 B1,0507-1473-9317,평일 06:00-23:00 주말 10:00-18:00,https://search.pstatic.net/common/?src=https%3A%2F%2Fpup-review-phinf.pstatic.net%2FMjAyNDA4MjhfMTEw%2FMDAxNzI0ODE0NDM4ODA5.soj6pUsCyGzhQgHU9q9uGO-ScvhoRfOzA6Nq4o-2MLwg.CUUrsBENSMt_hTzKX8977M3zp68PuQJk1-wu9Zhj2O4g.JPEG%2FCB72D86A-5700-40BA-9731-1448F0E4FF53.jpeg%3Ftype%3Dw1500_60_sharpen,,"센트럴짐에서 도심 속 피트니스의 진수를 경험하세요. 최신식 운동 기구와 다양한 프로그램이 준비되어 있어, 초보자부터 전문가까지 모두가 만족할 수 있습니다. 체계적인 트레이닝과 함께 목표를 달성할 수 있는 최적의 장소입니다. 넓고 쾌적한 환경에서 건강한 라이프스타일을 유지해보세요.",샤워실 공용락커 운동복 타월,운동화,37.5269056148241,126.966566172294
39,서울특별시,용산구,한강로동,PT&헬스,한강로피트니스센터,서울 용산구 서빙고로 17 용산센트럴파크 해링턴스퀘어 공공시설동 지하1층,02-798-5019,평일 07:00-21:50 토요일 10:30-17:50,https://search.pstatic.net/common/?src=https%3A%2F%2Fpup-review-phinf.pstatic.net%2FMjAyNDA4MDNfOTYg%2FMDAxNzIyNjY5MTA1Mzk1.IRDsN1s1bwNa3YKV0QaYKboozhS2AiGceC0CQlQYu1Ug.pOuIxYsMfoCXFVOigsAAitRbazlhTVekZ8C_h7p_CwEg.JPEG%2F20240803_122553.jpg.jpg%3Ftype%3Dw1500_60_sharpen,,"한강로피트니스센터에서 도심 속에서의 운동을 즐겨보세요. 다양한 피트니스 장비와 프로그램으로 체계적인 운동이 가능합니다. 편리한 위치와 현대적인 시설로, 일상의 피로를 풀고 활력을 되찾을 수 있습니다. 전문 트레이너의 지도로 목표를 설정하고, 건강한 변화를 만들어보세요.",샤워실 공용락커 운동복 타월,운동화,37.5269056148241,126.966566172294
40,서울특별시,용산구,한강로동,PT&헬스,원짐,"서울 용산구 이촌로 1 1층 104호, 지하 1층 전체",0507-1350-0173,평일 06:00-23:00 주말 10:00-18:00,https://search.pstatic.net/common/?src=https%3A%2F%2Fldb-phinf.pstatic.net%2F20240712_96%2F1720782503761hj0wF_JPEG%2FIMG_7329.jpeg,,원짐에서 당신의 운동 목표를 실현해보세요. 최첨단 장비와 체계적인 트레이닝 프로그램으로 개인 맞춤형 운동이 가능합니다. 넓고 쾌적한 공간에서 자신의 한계를 시험하며 건강한 신체를 만들어보세요. 전문 트레이너와 함께라면 누구나 자신감 있게 운동할 수 있습니다.,샤워실 공용락커 운동복 타월,운동화,37.5313838478733,126.955345962773
41,서울특별시,용산구,한강로동,테니스&배드민턴,세컨드랠리 용산점,서울 용산구 한강대로15길 23 5층,,24시간 영업,https://search.pstatic.net/common/?src=https%3A%2F%2Fnaverbooking-phinf.pstatic.net%2F20240827_143%2F17246930188321LyqK_PNG%2FScreenshot_2024-08-27_at_2.23.07_AM.png,,"테니스의 즐거움을 극대화할 수 있는 세컨드랠리 용산점. 초보자부터 고급자까지 모두가 만족할 수 있는 맞춤형 레슨을 제공합니다. 최신 시설과 전문 코치진이 함께하며, 실력 향상을 위한 체계적인 프로그램이 준비되어 있습니다. 테니스의 매력을 이곳에서 느껴보세요.",샤워실 공용락커,테니스화,37.5261297437664,126.963172986485
42,서울특별시,용산구,한강로동,테니스&배드민턴,올댓테니스 신용산점,서울 용산구 한강대로48길 9 보원빌딩 지하1층,0507-1397-9177,평일 06:00-23:00 주말 10:00-18:00,https://search.pstatic.net/common/?src=https%3A%2F%2Fldb-phinf.pstatic.net%2F20220314_288%2F16472402372745kncQ_JPEG%2F20220312_210737.jpg,,"올댓테니스 신용산점에서 테니스의 재미를 느껴보세요. 초보자부터 숙련자까지 모두가 만족할 수 있는 다양한 레슨 프로그램이 준비되어 있습니다. 최신 시설과 친절한 코치진이 함께하여, 테니스 실력을 한층 더 높일 수 있습니다. 도심 속에서 편리하게 테니스를 즐길 수 있는 최적의 장소입니다.",샤워실 공용락커,테니스화,37.531706750638,126.971237059463
43,서울특별시,용산구,한강로동,필라테스,아이린필라테스,서울 용산구 한강대로 69 용산푸르지오써밋 상가동 B1층 112-3호,0507-1434-4502,평일 06:00-22:00 주말 09:00-16:00,https://search.pstatic.net/common/?src=https%3A%2F%2Fldb-phinf.pstatic.net%2F20220726_55%2F1658813331468WAYGt_JPEG%2FKakaoTalk_20220725_162718599_01.jpg,,아이린필라테스에서 몸의 균형을 찾아보세요. 체형 교정과 유연성 향상을 위한 맞춤형 필라테스 프로그램이 제공됩니다. 아늑한 분위기 속에서 전문 강사들의 지도로 건강한 신체를 만들어보세요. 개인 맞춤형 수업으로 효과적인 운동을 경험할 수 있습니다.,샤워실 공용락커 수건,토삭스,37.5270404595814,126.964892234354
44,서울특별시,용산구,한강로동,필라테스,브레이앤바디,서울 용산구 한강대로 69 상가동 지하1층 122호,0507-1480-1385,평일 07:00-23:00 토요일 07:00-23:00,https://search.pstatic.net/common/?src=https%3A%2F%2Fldb-phinf.pstatic.net%2F20231016_15%2F1697468197629msUr5_JPEG%2F1694965290034.jpg,,"브레이앤바디에서 새로운 피트니스 경험을 시작해보세요. 고급스러운 환경과 최신 트레이닝 장비가 준비되어 있으며, 개인 맞춤형 트레이닝으로 최상의 결과를 얻을 수 있습니다. 체형 관리와 근력 향상에 특화된 프로그램을 통해 건강한 라이프스타일을 유지할 수 있습니다.",샤워실 공용락커 수건,토삭스,37.5270404595814,126.964892234354
45,서울특별시,용산구,한강로동,필라테스,바시필라테스 용산점,"서울 용산구 서빙고로 17 2076호, 2077호, 2101호, 2102호, 2102호",0507-1359-7278,평일 07:00-23:00 토요일 07:00-23:00,https://search.pstatic.net/common/?src=https%3A%2F%2Fldb-phinf.pstatic.net%2F20240327_267%2F1711523467929fjKmY_PNG%2F%25BD%25BA%25C5%25A9%25B8%25B0%25BC%25A6_2024-03-27_%25BF%25C0%25C8%25C4_12.44.55.png,,바시필라테스 용산점에서 필라테스의 진수를 경험해보세요. 정교한 동작과 심화된 트레이닝으로 체형 교정과 유연성을 극대화할 수 있습니다. 숙련된 강사들이 개별 지도를 통해 최적의 운동 효과를 보장합니다. 현대적인 시설과 편안한 환경에서 건강한 변화를 시작할 수 있는 장소입니다.,샤워실 공용락커 수건,토삭스,37.5269056148241,126.966566172294
46,서울특별시,용산구,한강로동,필라테스,펠리즈필라테스,서울 용산구 한강대로 69 상가동 3층 303-1호,0507-1492-4551,평일 06:00-22:00 주말 09:00-16:00,https://search.pstatic.net/common/?src=https%3A%2F%2Fldb-phinf.pstatic.net%2F20240526_141%2F17166921576866MJ9q_JPEG%2FKakaoTalk_20240418_152417820_21.jpg,,"펠리즈필라테스에서 즐거운 필라테스 경험을 만끽하세요. 체계적인 필라테스 프로그램으로 근력 강화와 유연성 향상을 도모합니다. 깔끔하고 아늑한 환경에서 전문 강사의 지도를 받아, 건강한 신체와 마음의 균형을 맞출 수 있습니다. 편안한 분위기 속에서 몸의 변화를 느껴보세요.",샤워실 공용락커 수건,토삭스,37.5270404595814,126.964892234354
47,서울특별시,용산구,한강로동,요가,아메리카요가 용상점,서울 용산구 새창로 213-12 현대하이엘 2층 아메리카요가용산점(파리바게트 옆 건물),0507-1434-9780,평일 07:00-23:00 토요일 10:00-23:00,https://search.pstatic.net/common/?src=https%3A%2F%2Fldb-phinf.pstatic.net%2F20240503_244%2F1714730042359LrRzm_JPEG%2FKakaoTalk_20240503_185150702_02.jpg,,아메리카요가 용산점에서 요가를 통해 몸과 마음의 평화를 찾아보세요. 다양한 요가 스타일과 맞춤형 수업으로 모든 레벨의 수련자들이 만족할 수 있습니다. 고요한 환경에서 요가의 진정한 가치를 경험할 수 있습니다. 심신의 안정을 찾고자 하는 모든 이들에게 최적의 장소입니다.,샤워실 공용락커 요가매트,토삭스,37.5304894835944,126.968028095222
48,서울특별시,용산구,한강로동,요가,아힘사 요가,서울 용산구 새창로 217 805호,0507-1432-7579,매일 06:30-22:30,https://search.pstatic.net/common/?src=https%3A%2F%2Fpup-review-phinf.pstatic.net%2FMjAyNDA4MjBfMzQg%2FMDAxNzI0MTEwMjUzMTQz.mALbvnv7AP4Ur1L5T9-7WGypAbjbk0Yb0YmWZw4sMhgg.k9dhxmsnFGdM2HtEbezMI_dkzzaABDc6tCcIn3TSYVEg.JPEG%2F1000034839.jpg.jpg%3Ftype%3Dw1500_60_sharpen,,"아힘사 요가에서 요가의 본질을 느껴보세요. 전통 요가의 철학을 기반으로 현대적인 접근법을 결합한 수업이 진행됩니다. 체계적인 수련을 통해 심신의 안정과 건강을 도모할 수 있습니다. 내면의 평화를 찾고, 일상 속에서 새로운 활력을 느낄 수 있는 공간입니다.",샤워실 공용락커 요가매트,토삭스,37.5302166820111,126.967776259525
49,서울특별시,용산구,한강로동,요가,뿐다요가,서울 용산구 서빙고로 36 2층,,평일 09:00-18:00,https://search.pstatic.net/common/?src=https%3A%2F%2Fldb-phinf.pstatic.net%2F20240828_259%2F1724812888312wMznA_JPEG%2FKakaoTalk_20240816_180635138_01.jpg,,"뿐다요가에서 특별한 요가 경험을 시작해보세요. 차분하고 아늑한 환경에서 몸과 마음의 조화를 이룰 수 있습니다. 다양한 요가 프로그램이 준비되어 있어, 초보자부터 숙련자까지 모두가 만족할 수 있습니다. 평온한 일상을 위해 몸과 마음을 가꾸고 싶다면 이곳에서 요가를 시작해보세요.",샤워실 공용락커 요가매트,토삭스,37.5242494085222,126.968339592896
50,서울특별시,용산구,한강로동,요가,void yoga,서울 용산구 한강대로 159-1 2층 void yoga,,매일 07:00-22:00,https://search.pstatic.net/common/?src=https%3A%2F%2Fldb-phinf.pstatic.net%2F20200911_258%2F1599833917115Kj9t7_JPEG%2FNea80WsBoBZidG0QCq-2pIVy.jpeg.jpg,,"void yoga에서 내면의 고요함을 찾아보세요. 현대적인 요가 스튜디오에서 다양한 요가 스타일을 경험할 수 있습니다. 정교한 동작과 호흡을 통해 심신의 균형을 맞추고, 내면의 평화를 찾을 수 있습니다. 바쁜 일상 속에서 잠시 멈추고 자신을 되돌아볼 수 있는 공간입니다.",샤워실 공용락커 요가매트,토삭스,37.5334425316261,126.971619145806
51,서울특별시,용산구,한강로동,골프,마커스골프 용산 본점,서울 용산구 서빙고로 17 센트럴파크타워 업무동 B1층,0507-1490-3384,평일 06:00-24:00 주말 08:00-20:00,https://search.pstatic.net/common/?src=https%3A%2F%2Fldb-phinf.pstatic.net%2F20211030_11%2F1635546499263tHmKi_JPEG%2FyNAKkWp_U5GW_dfIgCyEatls.jpeg.jpg,,"마커스골프 용산 본점에서 프로 수준의 골프 레슨을 경험하세요. 최신 기술과 전문 코치진의 지도로 골프 실력을 한 단계 높일 수 있습니다. 실내에서도 현실감 넘치는 라운딩을 즐길 수 있으며, 초보자도 쉽게 접근할 수 있는 다양한 프로그램이 준비되어 있습니다. 골프의 즐거움을 이곳에서 만끽해보세요.",공용락커,골프화,37.5269056148241,126.966566172294
52,서울특별시,용산구,한강로동,골프,티브레이브골프 서울용산본점,서울 용산구 한강대로 69 용산 푸르지오써밋 B1 B113-1호,0507-1323-5301,평일 07:00-23:00 토요일 10:00-23:00,https://search.pstatic.net/common/?src=https%3A%2F%2Fpup-review-phinf.pstatic.net%2FMjAyNDA4MjJfMTQ4%2FMDAxNzI0MzA0ODI2NTY5.S36zRfS0v_HgrFigP5fKP31KqqR-_iGtIj-h2HX6qWYg.RVk25QkN6VCLBWHelDXJSsEbS6Psjy3DC8oxLMySiXYg.JPEG%2FIMG_4652.jpeg%3Ftype%3Dw1500_60_sharpen,,"티브레이브골프 서울용산본점에서 실내 골프의 새로운 세계를 경험하세요. 최신 스크린 골프 시스템과 체계적인 레슨 프로그램이 준비되어 있어, 초보자부터 숙련자까지 모두가 만족할 수 있습니다. 도심 속에서도 편안하게 골프를 즐기며 실력을 향상시킬 수 있는 최적의 장소입니다.",공용락커,골프화,37.5270404595814,126.964892234354
53,서울특별시,용산구,한강로동,수영,서울드래곤시티 카바나 시티,서울 용산구 청파로20길 95 스카이킹덤 34F 카바나 시티,02-2223-7723,평일 11:00-22:00,https://search.pstatic.net/common/?src=https%3A%2F%2Fnaverbooking-phinf.pstatic.net%2F20240512_154%2F1715502197022Y4yeF_PNG%2FMicrosoftTeams-image_%252833%2529.png,,"서울드래곤시티 카바나 시티에서 럭셔리한 휴식을 즐겨보세요. 세련된 인테리어와 프라이빗한 공간에서 도심 속 힐링의 시간을 가질 수 있습니다. 수영장과 스파 시설이 완비되어 있어, 피로를 풀고 활력을 되찾을 수 있습니다. 품격 있는 휴식을 원한다면 이곳에서 특별한 경험을 해보세요.",샤워실,수영복 샤워도구,37.5321681514111,126.960884174116
54,서울특별시,용산구,한강로동,수영,마포 아트센터 수영장,서울 마포구 대흥로20길 28,,평일 06:00-24:00 토요일 09:00-18:00,https://search.pstatic.net/common/?src=https%3A%2F%2Fpup-review-phinf.pstatic.net%2FMjAyNDA3MjZfMTE2%2FMDAxNzIxOTk0NTg4NDUz.cScTA8F6Td2VNHu8BAobKlY2aJ6OXsSWQaYdxWk6dDsg.lFYTqzxnycpajGJsaXSaCrNU4BG3JXbwkIYGUEnkBWAg.JPEG%2F20240314_221521.jpg.jpg%3Ftype%3Dw1500_60_sharpen,,"마포 아트센터 수영장은 깨끗하고 잘 관리된 시설로, 누구나 즐겁게 수영을 배울 수 있는 곳입니다. 다양한 수영 프로그램이 마련되어 있어, 초보자도 쉽게 배울 수 있습니다. 가족 단위로 이용하기에도 좋은 시설로, 물 속에서 활기찬 시간을 보내보세요. 도심 속에서 건강한 여가 시간을 보낼 수 있는 최적의 장소입니다.",샤워실,수영복 샤워도구,37.5499060881738,126.945533810385
55,서울특별시,용산구,남영동,PT&헬스,스카이짐 헬스,서울 용산구 한강대로 273 용산빌딩 B1,0507-1433-3993,24시간 영업,https://search.pstatic.net/common/?src=https%3A%2F%2Fldb-phinf.pstatic.net%2F20240806_43%2F1722938973240IIbah_JPEG%2FKakaoTalk_20240806_190857208_02.jpg,,"스카이짐 헬스에서 도심 속에서도 여유로운 운동을 즐겨보세요. 최첨단 운동 기구와 체계적인 트레이닝 프로그램으로 개인 맞춤형 운동이 가능합니다. 넓고 쾌적한 환경에서 건강한 라이프스타일을 유지하며, 운동의 즐거움을 만끽할 수 있습니다. 스카이짐 헬스에서 신체적, 정신적 활력을 되찾아보세요.",샤워실 공용락커 운동복 타월,운동화,37.542568701611,126.972115713764
56,서울특별시,용산구,남영동,PT&헬스,PT 필라테스 숙대점,서울 용산구 한강대로 304 3층,070-5066-6149,매일 07:00-23:00,https://search.pstatic.net/common/?src=https%3A%2F%2Fldb-phinf.pstatic.net%2F20231110_176%2F1699612792262rid0A_JPEG%2FIMG_0207.JPG,,PT 필라테스 숙대점에서 개인 맞춤형 필라테스를 경험하세요. 체형 교정과 근력 향상을 목표로 한 전문 프로그램이 준비되어 있습니다. 세련된 스튜디오 환경에서 개인 트레이너의 집중적인 지도를 받으며 건강한 몸매를 만들어보세요. 필라테스를 통해 균형 잡힌 삶을 시작해보세요.,샤워실 공용락커 운동복 타월,운동화,37.5454262692875,126.972320484208
57,서울특별시,용산구,남영동,PT&헬스,크로스핏 알앤엘 용산,서울 용산구 한강대로 295 B1층,0507-1386-8898,매일 06:00-22:00,https://search.pstatic.net/common/?src=https%3A%2F%2Fldb-phinf.pstatic.net%2F20231115_81%2F1700008214904rwPPa_JPEG%2F1700008157434.jpg,,크로스핏 알앤엘 용산에서 도전적인 운동을 통해 체력을 극대화해보세요. 고강도 인터벌 트레이닝으로 짧은 시간에 최대의 운동 효과를 얻을 수 있습니다. 전문 코치진의 지도 아래 개인의 한계를 뛰어넘는 체계적인 트레이닝을 경험할 수 있습니다. 활기찬 분위기 속에서 자신을 극복하는 짜릿한 성취감을 느껴보세요.,샤워실 공용락커 운동복 타월,운동화,37.544555413639,126.97177131634
58,서울특별시,용산구,남영동,PT&헬스,펜타클 휘트니스,서울 용산구 후암로 107 지하1층,02-727-5000,매일 06:00-23:00,https://search.pstatic.net/common/?src=https%3A%2F%2Fldb-phinf.pstatic.net%2F20220916_64%2F16633056339490rtHC_PNG%2F20220916_141330.png,,"펜타클 휘트니스에서 프리미엄 피트니스 경험을 누려보세요. 최신식 운동 기구와 다양한 프로그램이 준비되어 있으며, 개인 맞춤형 트레이닝으로 건강 목표를 달성할 수 있습니다. 넓고 고급스러운 환경에서 운동의 즐거움을 더해보세요. 전문 트레이너와 함께라면 체력 단련과 몸매 관리가 손쉽게 가능합니다.",샤워실 공용락커 운동복 타월,운동화,37.5534616592161,126.97356408407
59,서울특별시,용산구,남영동,테니스&배드민턴,하나테니스파크,서울 용산구 효창원로 154 1층,0507-1387-7679,24시간 영업,https://search.pstatic.net/common/?src=https%3A%2F%2Fldb-phinf.pstatic.net%2F20220409_197%2F1649471928603xQKuJ_JPEG%2F20220401_145235.jpg,,하나테니스파크에서 테니스의 즐거움을 만끽하세요. 최신 시설과 전문 코치진이 함께하는 체계적인 레슨으로 테니스 실력을 한층 높일 수 있습니다. 초보자부터 고급자까지 모두가 만족할 수 있는 다양한 코스와 프로그램이 준비되어 있습니다. 도심 속에서 손쉽게 테니스를 즐기고 싶다면 이곳이 최적의 장소입니다.,샤워실 공용락커,테니스화,37.5416783175446,126.962320543272
60,서울특별시,용산구,남영동,테니스&배드민턴,참테니스아카데미,서울 용산구 원효로53길 8 .지하1층,0507-1368-2179,평일 09:00-18:00,https://search.pstatic.net/common/?src=https%3A%2F%2Fldb-phinf.pstatic.net%2F20230919_103%2F1695097327940aICY6_PNG%2F%25B8%25F0%25B9%25D9%25C0%25CF_%25B8%25DE%25C0%25CE.png,,참테니스아카데미에서 테니스의 매력을 경험해보세요. 체계적인 훈련과 맞춤형 레슨으로 실력을 향상시킬 수 있는 최적의 장소입니다. 다양한 코트와 프로그램이 준비되어 있어 초보자부터 숙련자까지 모두가 만족할 수 있습니다. 테니스를 통해 건강한 라이프스타일을 유지하며 활기찬 에너지를 충전해보세요.,샤워실 공용락커,테니스화,37.5360235792578,126.962128441498
61,서울특별시,용산구,남영동,필라테스,그리고필라테스 서울역점,서울 용산구 한강대로104길 38 . 동자동 2층,0507-1488-0371,평일 07:00-22:00 토요일 10:00-15:00,https://search.pstatic.net/common/?src=https%3A%2F%2Fldb-phinf.pstatic.net%2F20240712_12%2F1720771350110mvT64_JPEG%2F%25BA%25ED%25B7%25CE%25B1%25D7%25BF%25EB_%25B7%25CE%25B0%25ED_%25C8%25AD%25BB%25E7%25C7%25D1.jpg,,"그리고필라테스 서울역점에서 체형을 아름답게 가꾸세요. 숙련된 강사들의 세심한 지도 아래 필라테스를 통해 근력을 강화하고 유연성을 높일 수 있습니다. 현대적인 스튜디오에서 편안한 분위기 속에서 운동을 즐기며, 건강한 몸과 마음을 만들 수 있습니다. 개인 맞춤형 수업으로 효율적인 운동 경험을 제공합니다.",샤워실 공용락커 수건,토삭스,37.5502031084135,126.974377875914
62,서울특별시,용산구,남영동,필라테스,하늘필라테스,서울 용산구 한강대로 273 B1 하늘필라테스,02-701-8797,평일 07:00-22:00 토요일 10:00-15:00,https://search.pstatic.net/common/?src=https%3A%2F%2Fldb-phinf.pstatic.net%2F20210714_34%2F1626262966017NGFLj_JPEG%2FIPF788ZhrOLkggXyyLkzCZy-.jpg,,"하늘필라테스에서 높은 수준의 필라테스 수업을 받아보세요. 탁 트인 전망과 함께하는 운동은 마음까지 편안하게 해줍니다. 체형 교정, 근력 향상, 유연성 강화 등 다양한 목표를 위한 맞춤형 프로그램이 준비되어 있습니다. 전문 강사들이 개별 지도를 통해 최상의 결과를 보장합니다.",샤워실 공용락커 수건,토삭스,37.542568701611,126.972115713764
63,서울특별시,용산구,남영동,필라테스,필라테스 헤리티지,서울 용산구 한강대로 366 트윈시티남산 B동 1층 (우리은행 건물),02-6222-3900,평일 07:00-22:00 주말 09:00-16:00,https://search.pstatic.net/common/?src=https%3A%2F%2Fldb-phinf.pstatic.net%2F20190322_243%2F15532209831394n9WA_JPEG%2FPMCQrdWb7exjeQs-aGXmEzza.jpg,,"필라테스 헤리티지에서 전통과 현대가 어우러진 필라테스를 경험하세요. 고급스러운 공간에서 체계적인 트레이닝을 통해 신체 균형을 찾을 수 있습니다. 개별 맞춤형 프로그램으로 각자의 목표에 맞게 운동을 진행할 수 있으며, 전문 강사진이 함께하여 신체적 변화를 도모할 수 있습니다.",샤워실 공용락커 수건,토삭스,37.5510861198751,126.972911385084
64,서울특별시,용산구,남영동,필라테스,더클래식필라테스,서울 용산구 한강대로104길 6 2층,02-3789-2739,평일 09:00-18:00,https://search.pstatic.net/common/?src=https%3A%2F%2Fldb-phinf.pstatic.net%2F20220903_190%2F1662185728867VMo7E_JPEG%2F0660B46B-0978-4120-AF3F-865FF49FE8A8.jpeg,,더클래식필라테스에서 필라테스의 진수를 느껴보세요. 전통 필라테스의 원리를 현대적으로 재해석한 프로그램으로 체형 교정과 근력 강화에 탁월한 효과를 제공합니다. 세련된 스튜디오에서 전문 강사들과 함께 몸과 마음의 조화를 이룰 수 있습니다. 개별 지도를 통해 맞춤형 운동을 경험해보세요.,샤워실 공용락커 수건,토삭스,37.5502005044121,126.972417738531
65,서울특별시,용산구,남영동,요가,뜨리요가 아쉬람,"서울 용산구 한강대로 276-1 2, 3층",0507-1408-1439,평일 09:00-22:00,https://search.pstatic.net/common/?src=https%3A%2F%2Fldb-phinf.pstatic.net%2F20190507_281%2F1557233926444zhqcX_JPEG%2FKhllgVe0kRPoe2hVcLIKk7Hy.jpg,,"뜨리요가 아쉬람에서 전통 요가의 깊이를 경험하세요. 고요한 공간에서 심신의 평화를 찾으며, 다양한 요가 스타일을 배울 수 있습니다. 명상과 호흡을 통해 내면의 안정과 균형을 찾을 수 있으며, 초보자부터 숙련자까지 모두가 만족할 수 있는 프로그램이 준비되어 있습니다. 요가를 통해 일상 속에서 새로운 활력을 얻어보세요.",토삭스,토삭스,37.5429585485849,126.972821991956
66,서울특별시,용산구,남영동,요가,점핑하이 숙대점,서울 용산구 두텁바위로 6 5층,0507-1417-7679,평일 18:00-21:00,https://search.pstatic.net/common/?src=http%3A%2F%2Fblogfiles.naver.net%2FMjAyNDA2MDZfNDIg%2FMDAxNzE3NjYxMjY5OTU2.aa1_H3Agbr4i-1MK_sIA07MG3aOVaLxkMMJ2wielUcog.dH7MKVAysuqPTm0w4oGVGBFAtLjGME48E8f_-6s_rsIg.JPEG%2Fimage_1.jpg,,"점핑하이 숙대점에서 에너지를 발산하며 운동의 즐거움을 느껴보세요. 트램펄린을 이용한 고강도 점핑 피트니스로, 짧은 시간에 높은 칼로리 소모를 기대할 수 있습니다. 신나는 음악과 함께 하는 점핑 운동은 스트레스를 해소하고, 신체를 활기차게 만들어줍니다. 누구나 쉽게 따라할 수 있는 프로그램으로 즐거운 운동을 시작해보세요.",토삭스,토삭스,37.5450616345655,126.972706033993
67,서울특별시,용산구,남영동,골프,스카이짐 GDR 골프아카데미 & 헬스,서울 용산구 한강대로 273 B1 스카이짐,0507-1313-7457,24시간 영업,https://search.pstatic.net/common/?src=https%3A%2F%2Fldb-phinf.pstatic.net%2F20240806_178%2F1722925642184lTWvs_JPEG%2F%25C1%25A6%25B8%25F1%25C0%25BB-%25C0%25D4%25B7%25C2%25C7%25D8%25C1%25D6%25BC%25BC%25BF%25E4__%25BA%25B9%25BB%25E7%25BA%25BB-001_%252824%2529.jpg,,"스카이짐 GDR 골프아카데미 & 헬스에서 골프와 피트니스를 동시에 즐겨보세요. 최첨단 GDR 골프 시뮬레이터와 체계적인 헬스 트레이닝이 결합된 공간으로, 골프 실력 향상과 체력 단련을 한곳에서 할 수 있습니다. 전문 트레이너와 함께 체계적인 트레이닝을 통해 최상의 운동 효과를 얻을 수 있습니다.",공용락커,골프화,37.542568701611,126.972115713764
68,서울특별시,용산구,남영동,골프,GDR아카데미 용산서울역점,서울 용산구 한강대로 366 트윈시티 남산 B2 GDR아카데미 용산 서울역점,0507-1348-1873,평일 06:00-23:00 주말 09:00-16:00,https://search.pstatic.net/common/?src=https%3A%2F%2Fldb-phinf.pstatic.net%2F20240822_125%2F17242979168909nB4c_PNG%2F%25BD%25BA%25B8%25B6%25C6%25AE%25C7%25C3%25B7%25B9%25C0%25CC%25BD%25BA_%25BF%25EB%25BB%25EA%25BC%25AD%25BF%25EF%25BF%25AA%25C1%25A1.png,,"GDR아카데미 용산서울역점에서 실내 골프의 즐거움을 만끽하세요. 최신 기술이 적용된 GDR 시뮬레이터로 현실감 있는 라운딩을 경험할 수 있으며, 전문 코치의 맞춤형 레슨을 통해 골프 실력을 한층 더 높일 수 있습니다. 편리한 위치와 현대적인 시설에서 골프를 즐기며 스트레스를 해소하세요.",공용락커,골프화,37.5510861198751,126.972911385084
69,서울특별시,용산구,남영동,골프,골프존 신용산스크린골프,서울 용산구 한강대로 256 수빌딩 지하 1층,0507-1359-0751,매일 07:00-22:00,https://search.pstatic.net/common/?src=https%3A%2F%2Fldb-phinf.pstatic.net%2F20231020_45%2F1697766075307LoP85_PNG%2FKakaoTalk_20231020_101011580.png,,"골프존 신용산스크린골프에서 실내에서도 생생한 골프 경험을 즐겨보세요. 최신 스크린 골프 시스템과 다양한 코스가 준비되어 있어 초보자부터 숙련자까지 모두가 만족할 수 있습니다. 친구나 가족과 함께 즐길 수 있는 여가 활동으로, 편리한 도심 속에서 골프의 매력을 느껴보세요.",공용락커,골프화,37.5412889756086,126.973524479551
70,서울특별시,용산구,남영동,골프,퍼터커스텀존 용산,서울 용산구 후암로57길 55 4층,010-6263-6753,매일 10:00-22:00,https://search.pstatic.net/common/?src=https%3A%2F%2Fldb-phinf.pstatic.net%2F20220514_198%2F1652454877943t9Lnq_JPEG%2F20220514_000521.jpg,,퍼터커스텀존 용산에서 나만의 퍼터를 맞춤 제작해보세요. 개인의 스타일과 기술에 맞춘 퍼터 제작 서비스로 골프 실력을 향상시킬 수 있습니다. 전문가의 세심한 상담과 고급 재료를 사용하여 최상의 퍼터를 제작합니다. 골프 퍼팅의 정교함을 높이고 싶다면 이곳에서 특별한 경험을 해보세요.,공용락커,골프화,37.551083327248,126.97411853589
71,서울특별시,용산구,남영동,수영,갈월종합사회복지관수영장,서울 용산구 두텁바위로 25,,평일 11:00-22:00,,,"갈월종합사회복지관수영장은 지역 주민들에게 안전하고 쾌적한 수영 환경을 제공합니다. 다양한 수영 프로그램과 강습이 준비되어 있어 누구나 쉽게 수영을 배울 수 있습니다. 가족 단위로 즐기기에 좋은 시설로, 물속에서 활기찬 시간을 보낼 수 있습니다. 건강한 여가 활동을 위해 이곳에서 수영을 시작해보세요.",샤워실,수영복 샤워도구,37.5457741648724,126.974824558285
72,서울특별시,용산구,남영동,수영,용산구문화체육센터수영장,서울 용산구 백범로 350,,평일 11:00-22:00,,,"용산구문화체육센터수영장에서 건강한 수영 습관을 길러보세요. 최신 시설과 청결한 환경에서 다양한 수영 프로그램을 경험할 수 있습니다. 전문 강사들이 체계적으로 지도하여 초보자도 쉽게 배울 수 있으며, 가족과 함께 즐기기에 좋은 장소입니다. 지역 주민들의 사랑을 받는 수영장으로, 건강한 여가 시간을 보내기에 최적의 장소입니다.",샤워실,수영복 샤워도구,37.537241925875,126.967627844336
73,서울특별시,용산구,이태원1동,PT&헬스,에이블짐 이태원점,서울 용산구 이태원로27나길 40 준아트빌 지하 1층 에이블짐 휘트니스,0507-1469-8181,24시간 영업,https://search.pstatic.net/common/?src=https%3A%2F%2Fldb-phinf.pstatic.net%2F20230726_259%2F1690364232854PwhsO_JPEG%2FKakaoTalk_20230724_165611339_09.jpg,,"에이블짐 이태원점에서 개인 맞춤형 피트니스 경험을 시작하세요. 최신식 운동 기구와 다양한 트레이닝 프로그램이 준비되어 있어, 체력 단련과 체형 관리에 최적화된 공간입니다. 전문 트레이너의 집중 지도를 통해 목표를 달성하고 건강한 몸을 만들어보세요. 쾌적한 환경에서 효율적인 운동을 즐길 수 있습니다.",샤워실 공용락커 운동복 타월,운동화,37.5349413830509,126.996922527709
74,서울특별시,용산구,이태원1동,PT&헬스,이태원짐,서울 용산구 이태원로 145 하나은행 건물6층,0507-1375-3752,24시간 영업,https://search.pstatic.net/common/?src=https%3A%2F%2Fldb-phinf.pstatic.net%2F20210328_210%2F16169080786809cssd_JPEG%2F0qOld4svIARVA6CD8AcMp9by.jpg,,이태원짐에서 당신의 운동 목표를 실현하세요. 현대적인 운동 기구와 체계적인 트레이닝 프로그램으로 개인 맞춤형 운동이 가능합니다. 전문 트레이너들이 개별 지도를 통해 체력 향상과 몸매 관리를 도와줍니다. 편안하고 친근한 분위기 속에서 건강한 라이프스타일을 유지할 수 있습니다.,샤워실 공용락커 운동복 타월,운동화,37.5345885203978,126.989907748728
75,서울특별시,용산구,이태원1동,PT&헬스,트레이닝랩,서울 용산구 회나무로39길 33,0507-1332-2285,평일 07:00-23:00 토요일 08:00-15:00,https://search.pstatic.net/common/?src=https%3A%2F%2Fldb-phinf.pstatic.net%2F20240220_32%2F17084051616224IUyn_JPEG%2FIMG_8996.jpeg,,"트레이닝랩에서 고강도 운동의 효과를 극대화하세요. 체계적인 트레이닝 프로그램과 최신식 운동 기구를 통해 신체적 한계를 극복할 수 있습니다. 개인 맞춤형 운동 계획으로 목표에 맞는 트레이닝이 가능하며, 전문 트레이너의 지도로 운동의 질을 높일 수 있습니다. 도전적인 운동을 통해 신체적 성장을 경험해보세요.",샤워실 공용락커 운동복 타월,운동화,37.5409328113161,126.993591556374
76,서울특별시,용산구,이태원1동,PT&헬스,핏클럽 서울,서울 용산구 녹사평대로 240 204호,0507-1388-5996,매일 08:00-22:00,https://search.pstatic.net/common/?src=https%3A%2F%2Fldb-phinf.pstatic.net%2F20230809_273%2F1691549862269Nf7T9_JPEG%2F%25B4%25EB%25C7%25A5%25BB%25E7%25C1%25F8.jpg,,"핏클럽 서울에서 프리미엄 피트니스의 경험을 누려보세요. 최신식 운동 기구와 다양한 프로그램이 준비되어 있으며, 개인 맞춤형 트레이닝으로 체력을 향상시킬 수 있습니다. 전문 트레이너들이 친절하게 지도하며, 체계적인 운동 계획을 통해 목표를 달성할 수 있습니다. 활기찬 운동 환경에서 건강한 몸을 만들어보세요.",샤워실 공용락커 운동복 타월,운동화,37.5389082377219,126.987600863599
77,서울특별시,용산구,이태원1동,테니스&배드민턴,용암배드민턴클럽,서울 용산구 용산동2가 산2-14,,평일 09:00-18:00,,,"용암배드민턴클럽에서 배드민턴의 즐거움을 느껴보세요. 넓고 쾌적한 코트에서 배드민턴을 즐길 수 있으며, 초보자부터 숙련자까지 모두가 만족할 수 있는 다양한 레슨이 제공됩니다. 동호회 활동을 통해 새로운 사람들과의 교류도 가능합니다. 건강한 취미 활동으로 삶의 활력을 더해보세요.",샤워실 공용락커,테니스화,37.5466766821543,126.988761731206
78,서울특별시,용산구,이태원1동,테니스&배드민턴,그랜드 하얏트 서울 테니스장,서울 용산구 소월로 322,,평일 09:00-18:00,,,"그랜드 하얏트 서울 테니스장에서 럭셔리한 테니스 경험을 즐겨보세요. 탁 트인 뷰와 함께하는 프리미엄 테니스 코트는 뛰어난 시설과 편리한 접근성을 자랑합니다. 전문 강사의 레슨을 통해 테니스 실력을 향상시킬 수 있으며, 품격 있는 환경에서 운동의 즐거움을 만끽할 수 있습니다.",샤워실 공용락커,테니스화,37.5397629769285,126.996240829219
79,서울특별시,용산구,이태원1동,필라테스,필라스테이,서울 용산구 이태원로 145 4층,0507-1421-0322,매일 07:00-22:00,https://search.pstatic.net/common/?src=https%3A%2F%2Fldb-phinf.pstatic.net%2F20221012_114%2F1665576967611TIG7n_JPEG%2FKakaoTalk_20221012_211401555_24.jpg,,"필라스테이에서 체형 교정과 유연성을 높일 수 있는 필라테스를 경험하세요. 전문 강사의 지도 아래 맞춤형 프로그램을 통해 건강한 몸과 마음을 만들어보세요. 아늑한 분위기 속에서 편안하게 운동할 수 있으며, 개인의 목표에 맞춘 수업으로 체계적인 변화를 기대할 수 있습니다.",샤워실 공용락커 수건,토삭스,37.5345885203978,126.989907748728
80,서울특별시,용산구,이태원1동,필라테스,이태원필라테스,서울 용산구 우사단로 36,0507-1322-3803,매일 07:00-21:00,https://search.pstatic.net/common/?src=https%3A%2F%2Fldb-phinf.pstatic.net%2F20210122_136%2F1611288616804c0zIB_JPEG%2FUpYmW2DDyGYBnE9zN6_lu_t1.JPG.jpg,,"필라스테이에서 체형 교정과 유연성을 높일 수 있는 필라테스를 경험하세요. 전문 강사의 지도 아래 맞춤형 프로그램을 통해 건강한 몸과 마음을 만들어보세요. 아늑한 분위기 속에서 편안하게 운동할 수 있으며, 개인의 목표에 맞춘 수업으로 체계적인 변화를 기대할 수 있습니다. 필라테스를 통해 활기찬 일상을 만들어보세요.",샤워실 공용락커 수건,토삭스,37.5334216281592,126.995741634131
81,서울특별시,용산구,이태원1동,필라테스,포지티브 필라테스,서울 용산구 녹사평대로 168-14 2층 포지티브 필라테스,0507-1309-1740,평일 06:00-23:00 주말 10:00-20:00,https://search.pstatic.net/common/?src=https%3A%2F%2Fldb-phinf.pstatic.net%2F20220930_255%2F1664531496222zQG0B_JPEG%2F46F6A0F6-AE25-4CAB-88FA-FE200B583D60.jpeg,,포지티브 필라테스에서 긍정적인 변화를 경험해보세요. 아늑한 스튜디오에서 전문 강사의 세심한 지도를 받으며 체형을 교정하고 유연성을 높일 수 있습니다. 맞춤형 프로그램으로 개개인의 필요에 따라 효과적인 운동이 가능합니다. 필라테스를 통해 건강한 몸과 마음을 만들어가는 여정을 시작하세요.,샤워실 공용락커 수건,토삭스,37.5332517802018,126.989731317613
82,서울특별시,용산구,이태원1동,필라테스,필라테스라운지 D,서울 용산구 회나무로 30 2층,0507-1358-5112,평일 07:00-22:00 주말 08:00-12:00,https://search.pstatic.net/common/?src=https%3A%2F%2Fldb-phinf.pstatic.net%2F20230712_238%2F1689160207077bC83V_JPEG%2FIMG_5139.jpeg,,"필라테스라운지 D에서 럭셔리한 필라테스 경험을 누려보세요. 최신식 기구와 세련된 인테리어가 조화를 이루는 공간에서 전문 강사의 맞춤형 지도를 받을 수 있습니다. 체형 교정과 근력 강화는 물론, 편안한 분위기 속에서 마음까지 치유되는 시간을 가질 수 있습니다. 특별한 운동 경험을 통해 일상에 활력을 더해보세요.",샤워실 공용락커 수건,토삭스,37.5394184231927,126.989904382206
83,서울특별시,용산구,이태원1동,요가,리탐빌 요가명상,서울 용산구 회나무로44길 2,0507-1333-7021,평일 06:30-22:00 주말 08:00-20:00,https://search.pstatic.net/common/?src=https%3A%2F%2Fldb-phinf.pstatic.net%2F20240825_184%2F1724558402055eIjeR_JPEG%2F%25BB%25E7%25BF%25EB%25B0%25A1%25B4%25C9IMG_0978.JPG,,리탐빌 요가명상에서 깊은 내면의 평화를 찾으세요. 자연과 조화를 이루는 공간에서 명상과 요가를 통해 심신의 안정을 얻을 수 있습니다. 다양한 요가 스타일과 명상 프로그램이 준비되어 있어 초보자부터 숙련자까지 모두가 만족할 수 있습니다. 일상 속에서 벗어나 마음을 가라앉히고 진정한 휴식을 취해보세요.,토삭스,토삭스,37.5407404804534,126.996523431656
84,서울특별시,용산구,이태원1동,요가,아이엔티엘 요가 명상 이태원점,서울 용산구 회나무로13가길 3-26 2층,02-792-3179,매일 07:00-22:00,https://search.pstatic.net/common/?src=https%3A%2F%2Fldb-phinf.pstatic.net%2F20240617_209%2F1718632202361xfcpC_JPEG%2F1000008408.jpg,,"아이엔티엘 요가 명상 이태원점에서 정신과 육체의 균형을 맞춰보세요. 이국적인 분위기 속에서 다양한 요가와 명상 프로그램을 통해 내면의 에너지를 충전할 수 있습니다. 전문 강사들의 세심한 지도 아래 깊은 호흡과 명상을 통해 스트레스를 해소하고, 마음의 평화를 찾아보세요.",토삭스,토삭스,37.5411928808363,126.990241335345
85,서울특별시,용산구,이태원1동,요가,밀밀아,서울 용산구 녹사평대로40나길 38-11 밀밀아,070-8064-3274,매일 00:00-22:00,https://search.pstatic.net/common/?src=https%3A%2F%2Fldb-phinf.pstatic.net%2F20220630_6%2F1656555872468ewDvd_JPEG%2FIMG_6370.jpg,,"밀밀아에서 전통 요가와 명상을 경험하세요. 고요한 분위기 속에서 몸과 마음을 정화하는 시간을 가져보세요. 다양한 요가 스타일을 통해 유연성을 높이고, 명상을 통해 내면의 평화를 찾을 수 있습니다. 모든 레벨의 참가자들이 편안하게 참여할 수 있는 프로그램이 준비되어 있습니다.",토삭스,토삭스,37.5360148936733,126.988893107537
86,서울특별시,용산구,이태원1동,요가,남산 요가명상,서울 용산구 회나무로13길 14-13 3층,0507-1368-1279,매일 06:00-21:00,https://search.pstatic.net/common/?src=https%3A%2F%2Fldb-phinf.pstatic.net%2F20240826_231%2F1724633747807o0dcc_JPEG%2FIMG_1169.jpeg,,"남산 요가명상에서 자연 속에서의 요가와 명상 경험을 즐기세요. 남산의 아름다운 풍경을 배경으로 심신의 안정을 도모할 수 있는 다양한 프로그램이 마련되어 있습니다. 명상과 요가를 통해 일상의 스트레스를 해소하고, 자연 속에서 마음의 평화를 찾아보세요. 초보자부터 전문가까지 모두에게 적합한 공간입니다.",토삭스,토삭스,37.5401458113005,126.990031238689
87,서울특별시,용산구,이태원1동,골프,청화골프,서울 용산구 장문로 27,02-797-0952,평일 07:00-22:00 주말 07:00-18:00,https://search.pstatic.net/common/?src=https%3A%2F%2Fldb-phinf.pstatic.net%2F20180518_172%2F1526619362926SAnCD_JPEG%2FqVCVLh67UfGrERufLJtVLY9f.jpg,,"청화골프에서 골프 실력을 한 단계 업그레이드하세요. 최신식 골프 연습시설과 전문 코치진의 맞춤형 지도를 통해 개인의 목표에 맞는 트레이닝이 가능합니다. 편리한 접근성과 쾌적한 환경에서 골프의 즐거움을 느낄 수 있으며, 실내외 연습장이 모두 준비되어 있어 날씨에 구애받지 않고 연습할 수 있습니다.",공용락커,골프화,37.5291071806126,126.993672893038
88,서울특별시,용산구,이태원1동,골프,포인트골프,서울 용산구 이태원로 168,02-792-1920,매일 10:00-22:00,https://search.pstatic.net/common/?src=https%3A%2F%2Fldb-phinf.pstatic.net%2F20150901_89%2F1441109385372wzPF3_JPEG%2FSUBMIT_1437568511408_36925066.jpg,,"포인트골프에서 골프의 묘미를 느껴보세요. 최신 골프 시뮬레이터와 다양한 코스를 제공하여, 도심 속에서도 실감나는 라운드를 즐길 수 있습니다. 초보자부터 전문가까지 모두가 만족할 수 있는 맞춤형 레슨이 준비되어 있으며, 편리한 위치와 현대적인 시설에서 골프의 재미를 만끽할 수 있습니다.",공용락커,골프화,37.5342067843198,126.992580875425
89,서울특별시,용산구,이태원1동,수영,이태원초등학교 수영장,서울 용산구 녹사평대로40길 19 이태원빌딩,,평일 09:00-18:00,,,"이태원초등학교 수영장에서 아이들과 함께 즐거운 수영 시간을 가져보세요. 안전하고 청결한 수영 환경에서 다양한 연령대가 함께 수영을 배울 수 있습니다. 전문 강사들의 세심한 지도 아래 기초부터 고급 기술까지 체계적으로 배울 수 있으며, 가족 단위로 함께 즐길 수 있는 여가 활동으로 최적입니다.",샤워실,수영복 샤워도구,37.5364777066784,126.987672660332
90,서울특별시,용산구,이태원1동,수영,이태원 해밀턴 수영장,서울 용산구 이태원로 179 해밀톤관광호텔,02-3786-6247,매일 10:00-18:00,https://search.pstatic.net/common/?src=http%3A%2F%2Fblogfiles.naver.net%2FMjAyNDA2MjVfNTkg%2FMDAxNzE5MjQyMDIyMDAy.ao9iNjANewTZr8S1e8EMlBSVcRHHXZQu87ytcLvFNsIg.qVQpzUoURnSWhQcGZ2EUzhgrUM9Kd4wIIzzU1Lu7UoUg.JPEG%2F1719242017070.jpg,,"이태원 해밀턴 수영장에서 도심 속의 물놀이를 즐겨보세요. 고급스러운 수영장 시설과 쾌적한 환경에서 다양한 수영 프로그램이 제공됩니다. 숙련된 강사들의 지도 아래 초보자도 안전하게 수영을 배울 수 있으며, 가족 단위로 즐기기에 적합한 공간입니다. 여름철 도심 속의 오아시스로, 건강한 여가 시간을 보낼 수 있습니다.",샤워실,수영복 샤워도구,37.5348143960679,126.993735204809
91,서울특별시,용산구,한남동,PT&헬스,웰페리온 SPA & FITNESS,서울 용산구 서빙고로 413,0507-1467-1339,평일 06:00-22:30 주말 08:00-20:00,https://search.pstatic.net/common/?src=https%3A%2F%2Fldb-phinf.pstatic.net%2F20240220_85%2F1708413605169FbMHR_JPEG%2FKakaoTalk_20240220_161027007.jpg,,도심 속에서 완벽한 힐링을 경험할 수 있는 럭셔리 스파 & 피트니스 센터입니다. 웰페리온의 최첨단 피트니스 시설과 프라이빗 스파는 바쁜 일상 속에서도 몸과 마음의 균형을 되찾아 줍니다. 고급스러운 인테리어와 세심한 서비스로 회원들에게 최상의 경험을 제공합니다. 이곳에서만 누릴 수 있는 맞춤형 웰니스 프로그램으로 건강과 행복을 동시에 챙기세요.,샤워실 공용락커 운동복 타월,운동화,37.5272785115091,127.004214687547
92,서울특별시,용산구,한남동,PT&헬스,스포짐 한남점,서울 용산구 독서당로 70 지하 1층 스포짐 한남점,0507-1361-0155,평일 06:00-23:00 주말 10:00-20:00,https://search.pstatic.net/common/?src=https%3A%2F%2Fldb-phinf.pstatic.net%2F20230905_300%2F1693881347945CxUzb_JPEG%2F%25B3%25D7%25C0%25CC%25B9%25F6.jpeg,,"한남동의 중심에서 만날 수 있는 최고의 피트니스 공간, 스포짐 한남점입니다. 넓고 쾌적한 운동 공간은 물론, 전문 트레이너들의 체계적인 관리로 운동 효과를 극대화할 수 있습니다. 최신식 기구와 다양한 그룹 운동 프로그램으로 누구나 쉽게 목표에 도달할 수 있도록 돕습니다. 건강한 라이프스타일을 위한 첫걸음을 스포짐 한남점에서 시작하세요.",샤워실 공용락커 운동복 타월,운동화,37.533599152103,127.008698229017
94,서울특별시,용산구,한남동,테니스&배드민턴,비웰테니스 한남,서울 용산구 독서당로 22 동원베네스트 B1층,010-4350-1331,평일 07:00-22:00 주말 08:00-22:00,https://search.pstatic.net/common/?src=https%3A%2F%2Fldb-phinf.pstatic.net%2F20230528_38%2F16852499452129m4QG_JPEG%2FIMG_4956.jpeg,,"테니스를 통해 건강한 삶을 추구하는 분들을 위한 비웰테니스 한남입니다. 최신 시설과 전문 강사진이 함께하는 이곳에서는 누구나 쉽게 테니스를 배울 수 있습니다. 개별 레슨부터 그룹 수업까지 다양하게 제공되며, 맞춤형 프로그램으로 체계적인 성장을 기대할 수 있습니다. 즐거운 테니스 라이프를 비웰테니스 한남에서 시작하세요.",샤워실 공용락커,테니스화,37.5301631563664,127.007801799645
95,서울특별시,용산구,한남동,필라테스,바디녹스필라테스 & 가루다 한남센터,서울 용산구 독서당로 70 현대리버티하우스 4층,02-749-3238,평일 06:00-22:00 일요일 09:00-13:00,https://search.pstatic.net/common/?src=https%3A%2F%2Fldb-phinf.pstatic.net%2F20230621_192%2F1687325051981aS581_JPEG%2FA3EFBBFE-6EE8-475A-B05B-E4709E7D5DC2.JPG,,정통 필라테스와 가루다 운동을 경험할 수 있는 바디녹스필라테스 & 가루다 한남센터입니다. 체계적이고 과학적인 프로그램으로 유연성과 근력을 동시에 강화할 수 있습니다. 트렌디한 인테리어와 차별화된 개인 맞춤형 수업으로 많은 회원들의 사랑을 받고 있습니다. 신체의 균형과 건강을 동시에 잡고 싶다면 이곳을 추천드립니다.,샤워실 공용락커 수건,토삭스,37.533599152103,127.008698229017
96,서울특별시,용산구,한남동,필라테스,멘탈코어 필라테스,서울 용산구 한남대로 76 4층,0507-1353-4692,평일 10:00-22:00 주말 10:00-18:00,https://search.pstatic.net/common/?src=https%3A%2F%2Fldb-phinf.pstatic.net%2F20240605_205%2F1717550914669kIzw6_JPEG%2FKakaoTalk_Image_2024-06-05-10-28-01_001.jpeg,,몸과 마음의 밸런스를 찾고자 하는 분들을 위한 멘탈코어 필라테스입니다. 스트레스 해소와 함께 심신을 단련할 수 있는 다양한 필라테스 프로그램이 마련되어 있습니다. 개별 맞춤형 수업을 통해 각자의 몸 상태에 맞는 최적의 운동을 제공합니다. 깊은 이완과 함께 정신적인 안정감까지 얻을 수 있는 특별한 공간입니다.,샤워실 공용락커 수건,토삭스,37.5355614904423,127.006549413089
97,서울특별시,용산구,한남동,필라테스,마브한남 필라테스&자이로토닉,서울 용산구 독서당로 94 3층 마브한남 필라테스&자이로토닉,02-792-8907,평일 09:00-23:00 토요일 08:00-15:00,https://search.pstatic.net/common/?src=https%3A%2F%2Fldb-phinf.pstatic.net%2F20210921_35%2F1632234079133Qqyc3_JPEG%2F1pyT07b4B9xth_Ko8uMwVaj_.jpg,,"프리미엄 필라테스와 자이로토닉 수업을 제공하는 마브한남 필라테스&자이로토닉입니다. 현대적인 시설과 전문적인 강사진의 지도로 체형 교정과 근력 강화 효과를 극대화할 수 있습니다. 모든 수업은 개인의 신체 상태와 목표에 맞춰 커스터마이징되며, 지속적인 성장을 도모합니다. 건강한 몸과 균형 잡힌 라이프스타일을 위해 마브한남을 찾아보세요.",샤워실 공용락커 수건,토삭스,37.5348016217165,127.01093982785
98,서울특별시,용산구,한남동,필라테스,라봉 필라테스,서울 용산구 대사관로31길 25-5 2층 201호,0507-1373-2570,평일 09:00-23:00 토요일 08:00-15:00,https://search.pstatic.net/common/?src=https%3A%2F%2Fldb-phinf.pstatic.net%2F20220608_213%2F1654685936554kAaTT_JPEG%2F2022-05-23-16-07-06-923.jpg,,"한남동에서 가장 아늑하고 편안한 필라테스 스튜디오, 라봉 필라테스입니다. 아담한 규모지만 최신식 기구와 전문 강사진이 있어 질 높은 수업을 제공합니다. 개별 맞춤형 프로그램으로 각자의 목표에 맞춘 효율적인 운동이 가능합니다. 따뜻한 분위기 속에서 몸과 마음을 편안하게 가꿔보세요.",샤워실 공용락커 수건,토삭스,37.5344799783238,127.005592253152
99,서울특별시,용산구,한남동,요가,숨 쉬는 고래 한남,서울 용산구 이태원로55가길 49 4층,0507-1349-9763,매일 07:00-22:00,https://search.pstatic.net/common/?src=https%3A%2F%2Fnaverbooking-phinf.pstatic.net%2F20240417_255%2F1713335147560TWWmA_JPEG%2F%25BC%25BC%25B6%25F3.jpg,,숨 쉬는 고래 한남은 자연 친화적인 환경에서 요가와 명상을 즐길 수 있는 공간입니다. 넓고 조용한 스튜디오에서 깊은 호흡과 함께 몸의 균형을 찾을 수 있습니다. 전문 강사들이 제공하는 다양한 요가 프로그램은 초보자부터 숙련자까지 모두에게 적합합니다. 도심 속에서의 여유와 평온을 경험하고 싶은 분들에게 이상적인 장소입니다.,샤워실 공용락커 요가매트,토삭스,37.5363596860333,126.999266710454
100,서울특별시,용산구,한남동,요가,시바난다요가,서울 용산구 한남대로 164 4층,0507-1424-1866,매일 07:10-22:00,https://search.pstatic.net/common/?src=https%3A%2F%2Fldb-phinf.pstatic.net%2F20210710_90%2F16258909413175y93T_JPEG%2F%25B0%25C7%25B9%25B0%25BB%25E7%25C1%25F8.jpg,,"전통 요가의 진수를 경험할 수 있는 시바난다요가입니다. 깊이 있는 요가 철학과 함께 체계적인 수련을 통해 내면의 평화를 찾을 수 있습니다. 평온한 분위기 속에서 몸과 마음을 힐링하며, 자신을 돌아보는 시간을 가져보세요. 요가 초보자부터 숙련자까지 모두 환영하는 열린 공간입니다.",샤워실 공용락커 요가매트,토삭스,37.5425557498748,127.002476259275
104,서울특별시,용산구,한남동,골프,골프존파크 이태원 에이치원,서울 용산구 이태원로 217 306호,02-794-3521,매일 09:00-02:00,https://search.pstatic.net/common/?src=https%3A%2F%2Fldb-phinf.pstatic.net%2F20240404_263%2F1712207728896SK6sg_JPEG%2F20240404_120141.jpg,,"도심 속에서 즐길 수 있는 최첨단 실내 골프 연습장, 골프존파크 이태원 에이치원입니다. 다양한 레벨에 맞춘 시뮬레이터와 전문적인 골프 레슨으로 누구나 쉽게 골프를 배울 수 있습니다. 실력 향상을 위한 개별 프로그램과 편리한 시설이 갖춰져 있어 골프 애호가들에게 인기가 많습니다. 언제든지 편안하게 방문해 골프의 즐거움을 만끽하세요.",공용락커,골프화,37.535176385593,126.997906520276
105,서울특별시,용산구,한남동,복싱,레거시 복싱점,서울 용산구 대사관로34길 31 5층,0507-1479-1282,평일 10:00-22:00,https://search.pstatic.net/common/?src=https%3A%2F%2Fldb-phinf.pstatic.net%2F20221226_183%2F1672030109889ujVNk_JPEG%2F7E365BBC-7968-4C45-B014-5C327C74F64E.jpeg,,"강인한 체력과 자신감을 기르고 싶은 분들을 위한 레거시 복싱점입니다. 초보자부터 프로 수준까지 맞춤형 레슨이 제공되며, 최첨단 시설에서 안전하게 훈련할 수 있습니다. 전문 코치진의 세심한 지도로 체력 증진과 함께 스트레스 해소 효과를 얻을 수 있습니다. 복싱의 매력을 느끼며 건강한 몸과 마음을 만들어 보세요.",샤워실 공용락커,샤워도구,37.5318784102529,127.005953081421
106,서울특별시,용산구,한남동,복싱,파이브라운즈,"서울 용산구 한남대로21길 14 우주빌딩 3층, 4층 파이브라운즈",070-4833-5855,평일 09:00-22:00 토요일 09:00-20:00,https://search.pstatic.net/common/?src=https%3A%2F%2Fldb-phinf.pstatic.net%2F20221229_67%2F1672310759438lpRm2_JPEG%2FKakaoTalk_20221222_173648733_16.jpg,,"파이브라운즈는 복싱과 피트니스를 결합한 혁신적인 트레이닝 센터입니다. 개별 맞춤형 프로그램으로 체력과 기술을 동시에 향상시킬 수 있으며, 최신식 장비와 함께 효과적인 운동을 제공합니다. 강력한 칼로리 소모와 스트레스 해소를 동시에 경험할 수 있는 이곳은 현대인들에게 완벽한 운동 공간입니다. 활기찬 에너지를 느끼며 목표를 달성해보세요.",샤워실 공용락커,샤워도구,37.5343180384265,127.006194266565
108,서울특별시,용산구,한남동,수영,블루라군 한남점,서울 용산구 독서당로 70 현대리버티 하우스 B2 블루라군,02-794-1001,평일 13:00-22:00 토요일 09:00-17:00,https://search.pstatic.net/common/?src=https%3A%2F%2Fldb-phinf.pstatic.net%2F20240328_35%2F1711609560438ve6Lz_JPEG%2FKakaoTalk_20180208_140406496.jpg,,"도심 속에서 만나는 아늑한 스파 & 피트니스 공간, 블루라군 한남점입니다. 최신 피트니스 시설과 편안한 스파 서비스를 동시에 누릴 수 있는 이곳은 일상의 피로를 말끔히 풀어줍니다. 고급스러운 인테리어와 친절한 서비스로 방문객들에게 특별한 경험을 선사합니다. 진정한 휴식을 원한다면 블루라군 한남점이 최상의 선택이 될 것입니다.",샤워실,수영복 샤워도구,37.533599152103,127.008698229017
